nombre,direccion,latitud,longitud,telefono,tamano,limpieza,demanda,localidadId,zonaId,medicinaGeneral,medicinaInterna,pediatria,ginecologia,obstetricia,cardiologia,gastro,neurologia,medicinaFyR,observacionesConsulta,rayosXDeTorax,tomografiaAbdominalPelvica,resonanciaCerebral,ecoAbdominal,mamografia,densitometriaOsea,epirometria,eeg,observacionesDiagnostico,hematologiaCompleta,perfil20,perfilTiroideo,urocultivo,heces,orina,perfilPreoperatorio,apendicectomia,colicistectomiaLamparoscopica,herniorrafiaIngiunal,cesarea,partoNormal,hospitalizacion
Centro Ambulatorio Tanamo,"Av. Principal de Bello Campo, C.C. Bello Campo, Nivel Mezz., Bello Campo",10.493740927959944, -66.85064020145175,,3,2,2,7,1,35.0,35.0,35.0,35.0,35.0,35.0,35.0,35.0,35.0,,15.0,,,40.0,,,30.0,,,8.0,25.0,26.0,23.0,5.0,6.0,30.0,,,,,,200.0
Grupo Médico Perfilab,"Av. Francisco de Miranda, C.C Centro Plaza, Altamira.",10.498055999524588, -66.8462764127445,,3,3,3,7,1,20.0,20.0,20.0,35.0,20.0,25.0,20.0,20.0,20.0,GINECOLOGÍA CON CITOLOGÍA CARDIOLOGÍA CON ECG,15.0,,,12.0,16.0,20.0,15.0,,,8.0,10.0,10.0,25.0,6.0,6.0,20.0,,,,,,
Punto Salud,"Av. Francisco de Miranda, Edificio Mene Grande, Piso 1. Altamira",10.49651446327381, -66.84620662215333,,3,3,2,7,1,40.0,40.0,40.0,60.0,60.0,35.0,55.0,40.0,30.0,,20.0,,,30.0,30.0,25.0,40.0,,,8.0,25.0,25.0,35.0,6.0,6.0,35.0,,,,,,
Oncomédica / Saludmédica,"Av. Eugenio Mendoza , Edif Banco Lara, piso S. La Castellana",10.496352279313639, -66.85069196745283,,3,3,2,7,1,80.0,80.0,,80.0,,80.0,80.0,80.0,,,30.0,,,40.0,50.0,,,,,,,,,,,,,,,,,
Dispensario Santo Cristo,"1era Av. Santa Eduvigis, Parroquia La Preciosísima Sangre",10.502186859482821, -66.84053830423464,,1,3,3,7,1,20.0,20.0,20.0,20.0,,20.0,20.0,,20.0,TRAUMATOLOGÍA 20$,,,,20.0,,,,,,10.0,15.0,20.0,25.0,5.0,4.0,25.0,,,,,,
Venesalud,"Av. Francisco de Miranda, Torre Adriática de Seguros. Piso 1 ofic. 11",10.495767104910291, -66.84963670467293,,1,2,1,7,1,35.0,35.0,35.0,35.0,35.0,40.0,,35.0,,,,,,25.0,,,,,,5.0,20.0,40.0,,,,,,,,,,
Grupo Diagnóstico Gaia,"Av. Francisco de Miranda, Torre Adriática. Piso 4",10.495563123908568, -66.84946649319865,,1,2,2,7,1,,,,,,,,,,SIN CONSULTA EXTERNA,,,,70.0,,,,,,,,,,,,,,,,,,
Centro Médico Flight,"Av. Francisco de Miranda, Edif. Mene Grande, piso 1- oficina 03.",10.49645358482951, -66.84630913870463,,1,3,1,7,1,15.0,40.0,30.0,25.0,30.0,50.0,,,,,,,,,,,,,SIN SERVICIO DE EXÁMENES,,,,,,,,,,,,,
Asociación Damas Salesianas Complejo Don Bosco,"Av. San Juan Bosco, entre Transv. 6 y 7 (Frente a la Clínica El Ávila)",10.505417019470226, -66.85059668894847,,2,3,3,7,1,20.0,35.0,20.0,40.0,,35.0,20.0,,,,,20.0,,,25.0,20.0,20.0,30.0,,,,,,,,,,,,,,
Econosalud,"Calle Chopin, Edificio Cóndor, PB local 5.",10.488842038352894, -66.88060447365272,,1,1,1,3,1,25.0,25.0,25.0,25.0,25.0,25.0,25.0,25.0,25.0,,,,,10.0,,,,,,,,,,,,,,,,,,
Unidad Médica González,Av. Principal de Bello Monte c/c Garcilazo CC Ibarra nivel 4 local C,10.487091919164255, -66.87374442142988,,3,3,3,3,1,30.0,30.0,30.0,30.0,30.0,30.0,,,,,10.0,,,10.0,20.0,,,,,8.0,15.0,15.0,20.0,4.0,4.0,20.0,,,,,,
Centro Salud Surplus,"Chacaito, Torre Limina, Final Casanova",10.490452850785454, -66.8713616023587,,1,1,1,4,1,,,,,,,,,,,,,,,,,,,,,,,,,,,,,,,,
Clínica Integral Herma Salud,"Av. El Mirador. Edificio Torre 18, Piso 1, oficina 1-E. La Campiña",10.497406744644495, -66.87354756124654,,1,2,1,4,1,25.0,35.0,30.0,45.0,30.0,35.0,30.0,35.0,30.0,GINECOLOGÍA CON CITOLOGÍA Y ECO TRANS VAGINAL,,,,20.0,,,15.0,60.0,,6.0,10.0,25.0,15.0,5.0,5.0,20.0,,,,,,
Centro Médico Las Delicias,2da avenida de las delicias de sabana grande. Edificio Portal Plaza,10.49474871131574, -66.87077623307057,,2,2,2,4,1,20.0,20.0,20.0,20.0,20.0,20.0,20.0,20.0,20.0,,30.0,,,30.0,35.0,25.0,,,MAMOGRAFIA CON ECO,10.0,17.0,25.0,25.0,10.0,10.0,22.0,2000.0,,2000.0,2200.0,1900.0,400.0
Grupo Médico Perfilab,"C.C Unico. Nivel PB Tamanaco, local C-8",10.490208531627545, -66.8683408648926,,2,2,3,4,1,20.0,20.0,20.0,20.0,20.0,20.0,20.0,20.0,20.0,,15.0,,,12.0,,,,,,8.0,10.0,10.0,,6.0,7.0,20.0,,,,,,
Instituto de Resonancia Magnética La Florida,"Av. Los Chaguaramos, Qta. María Teresa, Alta Florida",10.505189240188992, -66.87324425901399,,3,3,3,4,1,,,,,,,,,,,,,120.0,30.0,,,,,,,,,,,,,,,,,,
Artyficio,"Centro Profesional del Este,Piso 3, Ofic. 34, Av. Casanova, Calle Villaflor, Sabana Grande",10.492471053839344, -66.87907172905548,,2,2,1,4,1,,30.0,,,,,,,20.0,,,,,30.0,,,,,,5.0,20.0,16.0,,,,16.0,,,,,,
Clinilab,"Calle Negrín, con Boulevard de Sabana Grande, Edif. Galerías Cristal, Sabana Grande",10.494040006067127, -66.87638857891359,,3,3,3,4,1,20.0,25.0,25.0,25.0,30.0,,,,,,20.0,,,20.0,,,25.0,,,10.0,25.0,31.0,23.0,5.0,5.0,39.0,,,,,,
Más (+) Salud,"Calle Paraíso, Edif. Torre Ofigarel, PB, Local C, Sabana Grande, Caracas",10.496841152952555, -66.87945079269623,,3,1,2,4,1,20.0,20.0,20.0,20.0,,20.0,20.0,30.0,20.0,,10.0,230.0,170.0,15.0,15.0,15.0,55.0,35.0,,8.0,20.0,20.0,27.0,5.0,4.5,20.0,,,,,,
Cenfis,"Av. Guaicaipuro con Av. Pichincha Edif. ASKAIN Piso 2 Oeste, oficina 2K.",10.490549675601255, -66.86924071250644,,2,2,2,4,1,,30.0,,45.0,35.0,45.0,45.0,,30.0,GINECOLOGÍA CON CITOLOGÍA Y ECO / GASTRO CON ECO ABDOMINAL,10.0,,,20.0,,,,,,8.0,20.0,15.0,30.0,4.0,4.0,30.0,,,,,,
"Dr. Carlos Romero, Dr. Roberto Romero y Dr. Simón Tovar (Consultorio)","Av. Libertador. Edif. Libertador 75. Piso 8, oficina A-8",10.49677433897651, -66.87431745363331,,2,3,1,4,1,,80.0,,,,80.0,50.0,,,,,,,,,,,,,,,,,,,,,,,,,
Dr. José Alejandro León (Consultorio),"Av. Libertador. Edif. Libertador 75. PH, oficina PH-2B",10.496618538802434, -66.87421439833646,,2,3,1,4,1,,,,50.0,50.0,,,,,,,,,,,,,,,,,,,,,,,,,,,
Clínica Biogranate,"Av. Libertador, Torre Maracaibo Piso 1. Ofic. 1-D. Caracas",10.49673003348743, -66.87458760225933,,2,3,1,4,1,20.0,,,,,,,,,ES UN CENTRO ESTÉTICO,,,,,,,,,,7.8,19.0,32.4,11.5,6.9,6.9,32.0,,,,,,
Dr. Carolina Mendoza,"Av. Libertador, Edif. Majestic, oficina 024.",10.49685258201534, -66.87491942573683,,2,3,2,4,1,,50.0,,80.0,80.0,,,60.0,,,,,,,,,,,,,,,,,,,,,,,,
Dra. Silvana Pérez,"Avenida Pichincha, Plaza Brion Chacaito",10.490587677457755, -66.86887890097938,,1,3,1,4,1,,,,20.0,20.0,,,,,,,,,,,,,,,,,,,,,,,,,,,
Unimedlab,"Avenida Maturín, La Campiña",10.497075572244375, -66.8699538803254,,1,2,2,4,1,20.0,,,35.0,,50.0,,,30.0,,,30.0,,150.0,20.0,20.0,,,,,,,,,,,,,,,,
Centro Médico Quirúrgico Integral Avansalud,"Av. Tamanaco, Edif. IMPRES, Sotano 1, El Rosal, Caracas",10.491164942045113, -66.86200628367098,,2,3,1,6,1,,20.0,,50.0,40.0,60.0,40.0,70.0,,,20.0,,,20.0,20.0,,,10.0,,,,,,,,,2000.0,2000.0,1400.0,1400.0,1200.0,500.0
Centro Médico Beta,Av. Libertador. Conjunto Residencial Jardín Bello Campo. Local PB.,10.490842317886548, -66.85498851480436,,2,3,3,6,1,50.0,50.0,50.0,50.0,,50.0,20.0,50.0,50.0,,10.0,40.0,,40.0,,,40.0,,,8.0,18.0,24.0,25.0,,5.0,25.0,2200.0,3500.0,2500.0,2000.0,1500.0,700.0
Centro de Salud Integral Anluz,"Calle Miranda, entre Páez y José Felix Rivas Edf. Antoluz PB. Chacao",10.495293837509367, -66.8523674632522,,2,2,1,6,1,,,,30.0,30.0,,,,,SOLO GINECOLOGÍA Y OBSTETRICIA,,,,,,,,,,,,,,,,,,,,,,
Centro de Salud Promedio,"Centro Perú. Piso 5, oficina 56",10.492471880942945, -66.85529667581666,,1,2,1,6,1,,,25.0,40.0,40.0,50.0,,50.0,,,,,,,,,,,,5.0,15.0,15.0,20.0,5.0,5.0,15.0,,,,,,
Consultorio Médico Ginecológico Jenbal,"Centro Perú. Piso 10, oficina 108",10.492480288910729, -66.85541464886562,,1,2,2,6,1,,,,40.0,20.0,,,,,,,,,,,,,,,,,,,,,,,,,,,
Unidad de Atención Integral Femenina UNIFEM,"Av. Libertador, Multicentro Empresarial del Este, PB, Ofic. 15-16, Chacao",10.491527505041592, -66.85380458548636,,2,3,1,6,1,,,50.0,80.0,60.0,,,,,VÍNCULO CON GRUPO MÉDICO SANTA PAULA,,,,,,,,,,8.0,50.0,70.0,48.0,3.0,3.0,99.0,,,,,,
Centro Clínico San José,"Calle José Felix Rivas con Mohedano, Chacao.",10.495815220803534, -66.85333494232485,,1,3,3,6,1,20.0,,20.0,20.0,20.0,,,,,,,20.0,,,,,,,,,,,,,,,,,,,,
Centro Médico Quirúrgico Medinas,"Calle Glorieta, Qta. Paraguaná, Chuao",10.482756778120685, -66.84456601135766,,2,3,1,9,1,,50.0,,,,60.0,,,,,,,,30.0,,,,,,,,,,,,,1800.0,2000.0,1800.0,,,
ANGIOS Centro Vascular de Chuao,"Calle Choroni,, Esq. Calle Santa Fé, Chuao.",10.482036012627228, -66.841767888357,,2,3,1,9,1,,,,,,70.0,,,,,,,,,,,,,Ecocardiograma 60$ / Cateterismo 1 Stem 8500$,,,,,,,,,,,,,
QUIRON Especialidades Médicas,"Calle Choroni, Qta. Quirón, Chuao.",10.482506831833375, -66.84239478083519,,3,3,2,9,1,,40.0,30.0,40.0,,50.0,,,,,30.0,,,20.0,,,,,,4.0,25.0,20.0,35.0,3.0,4.0,30.0,1200.0,2200.0,1000.0,,,
Aquamater,"Calle Roraima, Qta. Isa, Chuao",10.483263032549795, -66.84381592128256,,2,2,1,9,1,,50.0,50.0,50.0,60.0,,40.0,,,,,,,40.0,,,,,,,,,,,,,,,,2395.0,2995.0,
Centro Médico Otorrinolaringológico,"Calle Santa Cruz, Chuao",10.483274520854993, -66.84504489702695,,3,3,2,9,1,,,,,,,,,,CONSULTA DE ORL: 60$,,,,,,,,,,,,,,,,,,,,,,
Asociación Quirúrgica Chuao. FISIOTEZATE,Av. Principal de Chuao,10.4815651685314, -66.8423965969214,,3,2,1,9,1,,,40.0,,,,,,20.0,,,,,,,,,,,,,,,,,,,,,,,
Previmed,"Av. Francisco de Miranda, Edificio A, Piso Mzz, Local G,",10.479629762094024, -66.81714199701814,,2,2,1,12,1,20.0,20.0,30.0,,,20.0,,,,NEUMONOLOGÍA CON ESPIROMETRÍA,,,,,,,15.0,,,,,,,,,,,,,,,
Bienestar Salud,"Av. Rómulo Gallegos, Centro Aloa planta principal, local M36",10.494800032777073, -66.81572758797041,,2,1,1,12,1,40.0,40.0,40.0,40.0,,40.0,40.0,,,,,,,25.0,,,,,,15.0,25.0,20.0,45.0,5.0,5.0,45.0,,,,,,
Centro de Salud y Rehabilitación El Marquez,"Av. Madrid con calle París, Quinta Jaguey °36. La California Norte",10.483222173449136, -66.82293016449489,,2,2,3,12,1,40.0,40.0,30.0,40.0,40.0,50.0,50.0,,40.0,,,,,10.0,,,,,Prueba de Esfuerzo: 50$,,,,,,,,,,,,,
Biosalud,"Av. Francisco de Miranda, Torre Profesional La California, piso 11 ofic. 11-1",10.480566529354585, -66.81805639320743,,2,3,1,12,1,,40.0,,30.0,30.0,,40.0,,40.0,MEDICINA I. CON FERFIL 20$,,,,,,,,,SIN SERVICIO DE EXÁMENES,7.0,20.0,22.0,,6.0,6.0,,,,,,,
Salud Activa Medical Center,"Av. Francisco de Miranda, Torre Profesional La California. piso 9, oficina 5",10.480432345917547, -66.8180069057543,,2,2,1,12,1,,25.0,35.0,35.0,35.0,50.0,,50.0,,,,,,20.0,,,,,,8.0,15.0,25.0,17.0,5.0,5.0,25.0,,,,,,
Grupo Médico Arcángel,"Av. Francisco de Miranda, Torre Miravila, PB.",10.48397091636888, -66.82072203104066,,2,2,1,12,1,10.0,10.0,20.0,30.0,30.0,,40.0,40.0,20.0,GASTRO CON ECO ABDOMINAL,10.0,,,10.0,,,20.0,,,4.0,8.0,30.0,15.0,,,10.0,,,,,,
FISIOADCA,"Av. Francisco de Miranda, C.C Unicentro El Marqués. Piso 2 local 214",10.483615048702132, -66.81916960921497,,2,2,1,12,1,,50.0,,,,,,,50.0,,,,,,,,,,,,,,,,,,,,,,,
Tu Buen Doctor,"Edificio Tu Buen Doctor. Av. Orinoco, cruce con Mucuchíes",10.481880128668577, -66.86336307608082,,3,3,2,5,1,20.0,40.0,40.0,100.0,40.0,60.0,40.0,70.0,,"GINECOLOGÍA CON CITOLOGÍA,  ECO TRANS VAGINAL Y COLPOSCOPIA",70.0,,,40.0,,,60.0,,Prueba de Esfuerzo: 60$,6.0,31.7,59.0,20.0,5.0,5.0,38.1,,,,,,
Centro Diagnóstico Docente Las Mercedes,"Calle París, Cruce con Calle Caroní, Edif. CDD, Las Mercedes, Caracas",10.481027790201585, -66.85715408866983,,2,3,2,5,1,80.0,80.0,80.0,120.0,80.0,80.0,,,,,40.0,300.0,100.0,50.0,20.0,30.0,,,,10.0,20.0,50.0,35.0,20.0,20.0,,,,,,,
Centro Médico Integral Careli,"Calle Madrid entre calles Nueva York y Trinidad, Qta. Careli.",10.482766458499544, -66.85904170552415,,2,2,1,5,1,45.0,45.0,50.0,45.0,45.0,45.0,45.0,,,,35.0,200.0,200.0,60.0,60.0,34.0,,,Prueba de Esfuerzo: 75$,10.0,30.0,30.0,40.0,10.0,10.0,35.0,,,,,,
Centro Médico Profesional Las Mercedes (Dr. Marjorie Tortonese),"Av. Principal de las Mercedes, Centro Médico Profesional Las Mercedes. Piso 1, consultorio Nº 16",10.482304023705755, -66.86216610867,,1,2,1,5,1,,,,100.0,,,,,,GINECOLOGÍA CON CITOLOGIA Y COLPOSCOPIA,,,,,,,,,,,,,,,,,,,,,,
Instituto Médico del Hombre y la Mujer,"Edificio L&M Piso 1, Av. Orinoco.",10.48128683575604, -66.86282192667295,,3,2,1,5,1,,110.0,,110.0,,,,,,GINECOLOGÍA CON CITOLOGÍA Y ECO TRANS VAGINAL,,,,25.0,,,,,,,30.0,,,,,,,,,,,
Instituto de Gastroenterología Dr. Isaías Simón Farcheg Ysa,"Av. Paseo Eraso con Calle Chivacoa, San Román",10.475795757959231, -66.85844636907179,,2,3,1,5,1,,60.0,,,,60.0,100.0,,,,,,,60.0,,,,,,,,,,,,,,,,,,
Vitalia,"Av. Francisco de Miranda con calle Los Laboratorios. Edif Quorum , piso 2",10.490412448858905, -66.82808501347208,,2,3,2,11,1,30.0,30.0,30.0,30.0,45.0,30.0,30.0,,,,,,,15.0,,,,,,,19.0,14.3,30.0,,,16.0,,,,,,
BO Medical,"Calle San Isidro entre Av. Rómulo Gallegos y 4ta Transversal, Boleita",10.492294359192377, -66.82169664654391,,3,3,2,11,1,,40.0,40.0,40.0,40.0,40.0,40.0,40.0,,,20.0,,,,20.0,,,,MAMOGRAFIA CON P. 30$,6.0,12.0,20.0,33.0,3.0,3.0,25.0,,,,,,
HM Centro de Salud,"Av. Francisco de Miranda. Centro Seguros La Paz, Piso 5 Ala Este. Oficina E52E",10.486814054280206, -66.82250749785173,,2,2,1,11,1,35.0,35.0,35.0,35.0,35.0,35.0,,35.0,,,20.0,,,10.0,,,20.0,,,12.0,14.0,39.0,20.0,10.0,10.0,18.0,,,,,,
Radiomedix,"Av. Francisco de Miranda con Av. principal de los Ruices. Centro Empresarial Miranda, Mezzanina ofic. M-1C",10.491554640349836, -66.82955455441363,,2,2,2,11,1,,20.0,,25.0,55.0,,,,,,10.0,,,10.0,10.0,10.0,,,,10.0,13.0,15.0,20.0,5.0,5.0,15.0,,,,,,
Centro Médico Quirúrgico Ciclinic,"Av. Rómulo Gallegos, Centro Gerencial Los Andes, Boleita",10.493153330127042, -66.82334921650877,,2,1,2,11,1,,40.0,,35.0,35.0,,50.0,,,,,,,15.0,,,10.0,,,5.0,20.0,56.0,19.0,,,25.0,,2600.0,1300.0,,,
Unidad Gastroenterologíca García Baldera,"Av. Francisco de Miranda, Edif. Centro Seguros La Paz",10.487052748113374, -66.82280291778861,,1,1,1,11,1,,,,,,,40.0,,,,,,,,30.0,,,,,,,,,,,,,,,,,
Bioimágenes Los Ruices,"Av.Francisco de Miranda, C.C. Los Rucies",10.492363296425472, -66.8292547607206,,2,3,3,11,1,,,,,,,,,,SIN CONSULTA EXTERNA,,160.0,,15.0,,20.0,,,,,,,,,,,,,,,,
Fisiomedical Rios,"Av. Francisco de Miranda, Centro Empresarial Don Bosco, Nivel Mezzanina",10.488933208406419, -66.8253989415694,,2,2,1,11,1,,,,,,,,,30.0,,,,,,,,,,,,,,,,,,,,,,,
Dra. Betcy Lobo,"Av.Francisco de Miranda, Centro Empresarial Don Bosco. PH local F",10.489061871218313, -66.82543681356734,,2,3,1,11,1,,,,50.0,50.0,,,,,,,,,,,,,,SIN SERVICIO DE EXÁMENES,,,,,,,,,,,,,
Consultorio Médico Especialista en Pediatría y Puericultura,"Av. Francisco de Miranda, Edif. Centro Seguros La Paz . Piso 3, 32-B",10.487067612564884, -66.82281073989941,,2,2,2,11,1,,,35.0,,,,,45.0,,,,,,,,,,,SIN SERVICIO DE EXÁMENES,,,,,,,,,,,,,
Centro Médico Ambulatorio Hiperbárico,"Calle Yare (entrada por calle maracay), Quinta Trino, El Marques.",10.491512517849792, -66.81509633439947,,1,1,1,11,1,,40.0,,,,,,,,,,,,,,,,,SIN SERVICIO DE EXAMENES,,,,,,,,,,,,,
Asociación Damas Salesianas Centro  Maria Auxiliadora,"Av. Rómulo Gallegos con 1era Transveral, Boleita, Miranda",10.494250373104402, -66.82503590159484,,2,2,3,11,1,20.0,20.0,20.0,20.0,20.0,20.0,20.0,20.0,20.0,,10.0,,,10.0,15.0,,,,,8.0,15.0,15.0,18.0,2.0,2.0,15.0,,,,,,
Dra. Alicia Araujo y Dra. Zelinda Mariño.,"Av.Francisco de Miranda, Centro Empresarial Don Bosco. Mezz local 17",10.48896374940193, -66.82551426622013,,2,2,1,11,1,,,20.0,,,,,,,,,,,,,,,,SIN SERVICIO DE EXÁMENES,,,,,,,,,,,,,
Grupo Médico Quiron,"Av. Rómulo Gallegos, Edif. Johnson & Johnson, piso 6. Los Dos Caminos",10.495857813889161, -66.83141846742896,,2,3,2,10,1,20.0,40.0,,60.0,60.0,60.0,,40.0,30.0,CARDIOLOGÍA CON ECG,10.0,,,,35.0,,20.0,,MAMOGRAFIA CON P. 45$,4.0,14.0,23.79,17.25,2.4,2.4,17.68,,,,,,
Visión Salud,"Av. Sucre, Torre Centro Parque Boyacá, Piso 8 Oficina 22. Los Dos Caminos",10.500293105484555, -66.83388800832145,,2,2,1,10,1,50.0,50.0,,,,,50.0,,,ENDOCRINO 50$ / UROLOGÍA 50$,,,,40.0,,,,,,7.0,21.0,,17.0,4.0,4.0,,,,,,,
Dr. Gabriel Cadena,"Av. Rómulo Gallegos, Torre Samán, Los Dos Caminos",10.495685359303707, -66.83086486864616,,2,3,2,10,1,,,,60.0,40.0,,,,,,,,,,,,,,SIN SERVICIO DE EXAMENES,,,,,,,,,,,,,
Womanclinix,"Av. Sucre , Edificio Qvadra , Local N° 2-7. Los Dos Caminos",10.496472828224048, -66.83427371603354,,2,3,3,10,1,,,,80.0,80.0,,,,,,,,,,,,,,SIN SERVICIO DE EXAMENES,,,,,,,,,,,,,
Centro Clínico La Carlota,"Av. B La Carlota, Número 11-03",10.492000895053076, -66.83385997979548,,2,2,2,10,1,,20.0,,35.0,35.0,40.0,20.0,,,,15.0,,,20.0,15.0,10.0,,,,5.0,15.0,20.0,30.0,4.0,4.0,25.0,,,,,,
Grupo Médico FC,"Av. Rómulo Gallegos, urb Santa Eduvigis, Torre KLM, piso 3",10.49773765309425, -66.8420385585177,,2,3,1,8,1,,50.0,50.0,30.0,30.0,50.0,,,,,,,,,,,,,Prueba de Esfuerzo: 100$,,20.0,,,,,,,,,,,
Grupo Óseo,"4ta Av. de los Palos Grandes, entre 1era y 2da transversal. Edif 4ta Av Suite",10.498817245065478, -66.84250993347253,,3,3,3,8,1,50.0,50.0,,50.0,50.0,75.0,50.0,50.0,,UROLOGÍA: 75$ INCLUYE Perfil Prostático / OTORRINO 50$,45.0,100.0,130.0,65.0,100.0,32.0,,,MAMOGRAFIA CON P. 120$,7.35,38.0,27.0,25.2,5.0,5.0,17.68,,,,,,
Grupo Médico TuSalud,"Av. Rómulo Gallegos, urb Santa Eduvigis, Torre KLM, piso 11 oficina A",10.497747051737402, -66.8419917721842,,2,2,1,8,1,,22.0,22.0,35.0,35.0,34.0,39.0,30.0,22.0,GASTRO CON ECO ABDOMINAL,15.0,,,14.0,,,20.0,,,9.0,24.0,47.0,33.0,5.5,5.5,,,,,,,
FisioPlus,"Final de Av. Rómulo Gallegos, Edificio Pascal, Torre B, Piso 1 oficina 11B. Los Palos Grandes",10.49810697241125, -66.84188926241656,,2,3,2,8,1,,,,,,,,,20.0,,,,,,,,,,SIN SERVICIO DE EXÁMENES,,,,,,,,,,,,,
Grupo Médico Arcángel Rafael C.A,"Zona Colonial de Petare, Calle La Paz, Edificio Juassil, piso 2",10.47633882038124, -66.80782823718914,,1,3,3,15,1,10.0,10.0,10.0,10.0,10.0,10.0,,,,,10.0,,,10.0,,,,,,4.0,7.0,20.0,20.0,4.0,4.0,10.0,,,,,,
OMEGA Diagnostic 2021 C.A,"Zona Colonial, Calle Miranda",10.476919566626837, -66.80848934552485,,1,2,3,15,1,,,,50.0,30.0,30.0,,,,,10.0,20.0,,20.0,30.0,,,,,5.0,8.0,20.0,15.0,3.0,3.0,10.0,,,,,,
JM Lab 21,"Zona colonial de Petare,calle Miranda entre calle Paz y Pacheco",10.4766500737394, -66.80734405021884,,1,2,2,15,1,25.0,25.0,,,,,,,,,,,,10.0,,,,,,2.0,6.5,25.0,15.0,2.0,2.0,6.5,,,,,,
Laboratorio Centro Médico Jade C.A,"Petare, calle Miranda Zona Colonial",10.476968360223191, -66.80884607932494,,1,2,2,15,1,20.0,25.0,15.0,30.0,15.0,,,,,,,,,10.0,,,,,,4.0,8.0,15.0,15.0,3.0,3.0,10.0,,,,,,
Master Lab,"Zona Colonial, Calle Miranda",10.476965722731872, -66.80879109403573,,1,2,2,15,1,20.0,20.0,,30.0,,25.0,,,,,10.0,20.0,,10.0,30.0,,,,,4.0,6.0,20.0,50.0,3.0,3.0,10.0,,,,,,
Centro Empresarial Las Nieves Servicio Médico,"Calle Miranda, Edificio Centro Empresarial Las Nieves, Urbanizacion Petare, Zona Colonial",10.477222961853288, -66.80952922097333,,1,3,3,15,1,15.0,30.0,15.0,15.0,15.0,25.0,30.0,,,,10.0,,,10.0,30.0,,,,,5.0,8.0,10.0,12.0,3.0,3.0,6.5,,,,,,
Medi- Ofertas GELUSO 2012 C.A,Calle Madeleine Zona Colonial,10.477140018560457, -66.80930856366128,,1,3,3,15,1,25.0,25.0,25.0,20.0,20.0,,,,,,10.0,,,10.0,,,,,,5.0,10.0,25.0,25.0,5.0,5.0,15.0,,,,,,
La Paz,"Zona Colonial, Calle Miranda",10.476858314280802, -66.80798259368758,,1,3,2,15,1,,,,,,,,,,,,,,10.0,,,,,,5.0,7.0,,,3.0,3.0,10.0,,,,,,
Centro Médico Rodriguez Méndez,"Zona Colonial de Petare, Plaza Sucre Casa Número 12, Calle Madeleine",10.477175062386323, -66.80884981424016,,1,2,3,15,1,20.0,20.0,20.0,30.0,30.0,,,,,,,,,,,,,,,5.0,10.0,,15.0,3.0,3.0,15.0,,,,,,
J.G.H Grupo Médico Popular Dr. José Gregorio Hernández,"Calle Vargas con calle Sucre, Callejón Z, con calle Número 2, Zona Colonial de Petare",10.47777031208307, -66.80872023028051,,2,2,3,15,1,10.0,20.0,10.0,10.0,10.0,20.0,,,,,10.0,,,,,,,,,5.0,12.0,50.0,25.0,5.0,5.0,15.0,,,,,,
Centro de Salud y Laboratorio Virgen de Guadalupe,"Calle Sucre, Casa Número 12, al lado del Consejo Municipal Zona Colonial de Petare",10.47771325291131, -66.80840318157202,,2,3,3,15,1,15.0,20.0,20.0,20.0,20.0,20.0,,,,,10.0,,,,,,,,,5.0,10.0,20.0,20.0,5.0,5.0,15.0,,,,,,
PLAFAM,"Casco colonial de Petare, calle Madeleine Casa Terramada",10.477242664917698, -66.80965765645074,,1,2,3,15,1,,20.0,20.0,20.0,,32.0,,,,,,,,12.0,,,,,,,,,,,,,,,,,,
Ginecotodo,Zona colonial de Petare calle Miranda local 502-310,10.477070179973966, -66.80931063560108,,1,3,2,15,1,,,,45.0,,,,,,,,,,,,,,,,,,,,,,,,,,,,
Stemlab,"Avenida Francisco de Miranda, Calle Ayacucho, Edificio La Libertad, piso 2, Petare",10.477625280776932, -66.80682205503413,,1,2,2,15,1,,20.0,20.0,,,,,,,,,,,,,,,,,10.0,10.0,20.0,20.0,5.0,5.0,13.0,,,,,,
Grupo Médico San Gabriel,"Avenida Principal de las Vegas, Redoma de Petare, Edificio San Gabriel, frente al elevado de Palo Verde",10.477584384706356, -66.8062364919237,,1,2,2,15,1,20.0,,20.0,30.0,,30.0,,,,,,,,15.0,,,,,,5.0,10.0,20.0,10.0,2.0,2.0,15.0,,,,,,
Laboratorio Clínico Unidad Medica de la Familia,"Avenida Las Vegas de Petare, Edificio la Redoma, Entrada A",10.477883197380578, -66.8051850820197,,1,2,3,15,1,10.0,10.0,20.0,20.0,,25.0,,,,,,,,,,,,,,5.0,10.0,25.0,20.0,3.0,3.0,15.0,,,,,,
Centro Clínico de Especialidades San Borja E.j. C.A,"Avenida Principal de Las Vegas, Redoma de Petare, Edificio La Redoma A, piso 1",10.477810463052773, -66.80525335991346,,1,2,3,15,1,15.0,25.0,18.0,10.0,15.0,30.0,,,,,,,,10.0,,,,,,5.0,8.0,16.0,16.0,3.0,3.0,13.0,,,,,,
Centro Diagnóstico Salud Petare,"Avenida Principal de Las Vegas, Redoma de Petare",10.477628265735465, -66.80564371630493,,1,3,3,15,1,10.0,30.0,20.0,25.0,25.0,,,,,,,,,20.0,,,,,,6.0,20.0,25.0,20.0,5.0,5.0,26.0,,,,,,
Clínica Quinta Viki,"Puente Baloa, Calle El Carmen, Antigua Carretera Petare - Santa Lucía",10.474793375349781, -66.80624936071081,,2,3,3,15,1,20.0,45.0,20.0,35.0,35.0,45.0,,,,,10.0,,,40.0,,,,,,15.0,10.0,35.0,30.0,10.0,10.0,20.0,,,,,,
Alfa Salud,"Torre Lincoln, Plaza Venezuela",10.495526900480515, -66.88150020921437,,2,3,3,1,1,15.0,25.0,25.0,25.0,25.0,25.0,25.0,25.0,25.0,,10.0,,,15.0,15.0,,15.0,,,7.0,15.0,15.0,15.0,5.0,5.0,20.0,,,,,,
"Capital de Salud Integral, Medicina Ocupacional y Preventiva","Torre Polar Oeste, Piso 2, La Gran Avenida",10.497666489643597, -66.88603716372444,,2,3,1,1,1,,35.0,35.0,35.0,,45.0,,,,,28.0,,,35.0,40.0,35.0,,,,7.0,49.0,36.0,14.0,4.0,4.0,47.0,,,,,,
Clínica El Cedral. Servicio de Salud Mental,"Calle Dr. R. Ramos, Las Palmas.",10.504576055981081, -66.88208761657829,,3,3,1,1,1,,60.0,,,,,,,,"Consultas de Psicología, Psiquiatría y Hospitalización.",,,,,,,,,,,,,,,,,,,,,,
Mente y Cuerpo Sano,"Av. Habana, Av. Quito",10.498278967818115, -66.88262203074933,,2,2,3,1,1,,30.0,35.0,50.0,25.0,,30.0,,,,,,,,,,,,,15.0,,30.0,5.0,5.0,15.0,,,,,,,
Centro Médico Las Palmas,"Av. Principal Las Palmas, Edifico Las Palmas",10.499390324197439, -66.88194201061496,,3,3,2,1,1,40.0,40.0,40.0,128.0,40.0,50.0,40.0,40.0,,"GINECOLOGÍA CON CITOLOGÍA,  ECO TRANS VAGINAL Y COLPOSCOPIA",,,,,,,,,,,,,,,,,,,,,,
Ceniesmed,"C.C. Libertador, La Florida",10.497239072108284, -66.87584272951017,,1,2,1,1,1,20.0,,,20.0,20.0,,,,,,,10.0,,,20.0,20.0,,,,,,,,,,,,,,,,
Grupo Médico Bucaral,"Redoma Nunciatura Apostolica, Av. La Salle",10.500290531484183, -66.88506508345351,,3,2,2,1,1,40.0,40.0,30.0,60.0,40.0,60.0,40.0,60.0,40.0,,,,,,,,,,,15.0,15.0,40.0,30.0,5.0,5.0,40.0,,,,,,
Grupo Médico Perfilab,Calle Los Mangos. Sector Las Delicias. Sabana Grande,10.492776663377926, -66.87275462973011,,3,2,3,2,1,5.0,20.0,20.0,20.0,20.0,20.0,20.0,20.0,,,15.0,,,12.0,16.0,20.0,,,,8.0,10.0,10.0,,6.0,7.0,20.0,,,,,,
Ceclines,"Avenida Libertador, Edificio Siclar, PB local 1 y 2",10.497638764323352, -66.87895748546283,,2,3,3,2,1,,,,25.0,,,,,,,,,,15.0,20.0,20.0,,,,,,,,,,,,,,,,
Asistanet,Calle Paraíso con Calle Las Flores,10.497233951634604, -66.87914746134176,,3,3,2,2,1,35.0,35.0,35.0,35.0,,35.0,35.0,,35.0,,,,,,,,,,,8.0,25.0,25.0,25.0,7.0,7.0,30.0,,,,,,
Centro de Rehabilitacion Hernández Almeida CER-HA,"Av. Los Manguitos, entre Av. Libertador y Tranv. 2, Edif. Torre Mega III, Piso 4",10.49514393926636, -66.87392265135125,,2,3,2,2,1,30.0,30.0,30.0,30.0,,,,,,,,,,,,,,,,12.0,15.0,25.0,18.0,4.0,4.0,17.0,,,,,,
Diagnóstico Esencial,"Edificio La Línea, Avenida Libertador Sabana Grande",10.497997753758995, -66.88142192310545,,2,3,1,2,1,15.0,50.0,10.0,20.0,20.0,40.0,,,20.0,,,,,,,,,,,12.0,18.0,18.0,18.0,4.0,4.0,18.0,,,,,,
Dra. Gretele Becerra,"Edif. Galerías Bolívar, Boulevard Sabana Grande",10.495638512379038, -66.8790734102732,,1,3,1,2,1,,,,20.0,20.0,,,,,,,,,,20.0,20.0,,,,,,,,,,,,,,,,
"Profem, Centro Médico Diagnóstico Sabana Grande","Boulevard de Sabana Grande, Con C. Villaflor, Centro Médico Diagnóstico",10.49476765986074, -66.87823336063079,,1,3,1,2,1,7.0,25.0,30.0,20.0,20.0,25.0,,,40.0,,,10.0,,,20.0,20.0,,,,,,,,,,,,,,,,
Centro Clínico Diagnóstico,Av. Cajigal Casa No. 7 Al lado de la Policlínica La Arboleda,10.510257373765128, -66.9025279195846,,2,3,3,19,2,,,,,,,50.0,,,Hematología: 150$,20.0,,,20.0,,,,,,5.0,15.0,60.0,23.0,3.0,3.0,35.0,,,,,,
Servilot,"Av. Sur 19, Bellas Artes, frente Hotel Plaza Mayor",10.502275472998805, -66.90151088880692,,2,2,2,19,2,40.0,40.0,30.0,30.0,30.0,,30.0,,,,,,,20.0,25.0,,,,,5.0,15.0,40.0,25.0,3.0,2.0,30.0,,,,,,
Atención Médica Primaria MEDITECH,"Av. Urdaneta, Edif. Dilcan, Piso 3",10.506237838834748, -66.90465250128462,,3,3,2,19,2,10.0,20.0,20.0,30.0,30.0,20.0,20.0,,,,,,,,,,,,,5.0,18.0,15.0,29.0,2.0,3.0,35.0,,,,,,
Servicios Diagnóstico Integral,"Av. México, Edif. Los Ortega, Piso Mezz., Local N° 28.",10.502362049281228, -66.90213190316587,,1,3,3,19,2,25.0,35.0,,,35.0,45.0,,,,Informe Pre Operatorio: 45$,,,,,35.0,35.0,,,,,,,,,,,,,,,,
Consusalud Servicios Médicos,"Torre Bandagro, Esquina Jesuitas, Avenida Oeste 3",10.509076909395205, -66.91385603617277,,2,2,2,26,2,15.0,20.0,20.0,20.0,20.0,25.0,20.0,,20.0,,20.0,,,15.0,35.0,,,,,,,,,,,,,,,,,
Lopcymaster,"Edificio Olimpo, PB, Av. Andrés Bello",10.504593539182821, -66.89035539057414,,2,2,3,18,2,30.0,30.0,30.0,30.0,30.0,30.0,30.0,30.0,30.0,Urología 30,10.0,,,10.0,30.0,,,,,,,,,,,,,,,,,
Servicios Integrales de Salud,"Av. Universidad, Centro Empresarial, Piso 3",10.504129744301217, -66.91283546588224,,2,2,3,23,2,30.0,30.0,30.0,30.0,,30.0,,40.0,,,15.0,,,15.0,,,,,,10.0,20.0,20.0,25.0,5.0,5.0,30.0,,,,,,
Grupo Médico Ibarras,"Av. Urdaneta, Pasaje Seguridad, PB",10.507866942856852, -66.91278408690603,,3,3,2,23,2,,30.0,30.0,70.0,70.0,,30.0,,,,,,,25.0,,,,15.0,,,,,,,,,,,,,,
Centro Médico Vargas Ponce,"Av. Fuerzas Armadas, Esq. San Enrique, Edf. Elsay, Piso 1",10.5124545826528, -66.90769903648446,,2,2,2,23,2,30.0,30.0,30.0,20.0,20.0,,,,,,,,,30.0,,,,,,,,,,,,,,,,,,
Red Salud,"Torre de San José, 132, Avenida Fuerzas Armadas con Av. Este 13",10.513939083481288, -66.90737042533141,,2,3,2,23,2,25.0,,25.0,35.0,35.0,35.0,,,,,15.0,,,15.0,,,,10.0,,,,,,,,,,,,,,
Centro Médico Karam,"Av. Este 6, Edif. Centro Ejecutivo, La Hoyada",10.502868708102245, -66.91111253649801,,2,2,2,23,2,15.0,20.0,15.0,30.0,30.0,30.0,25.0,30.0,,,15.0,,,15.0,20.0,,,10.0,,,10.0,25.0,,5.0,5.0,20.0,,,,,,
CEMED Salud y Estética Dental,"Av. Fuerzas Armadas, Esq. El Socorro, Resd. El Dorado",10.50843532080422, -66.90873270706476,,1,2,2,23,2,15.0,,20.0,20.0,20.0,,,,,,,,,,,,,,,5.0,10.0,20.0,20.0,2.0,2.0,20.0,,,,,,
Centro Médico Integral Ojo de Agua,"Av. Urdaneta, Edf. Karam, PB",10.507511211269286, -66.91187600591202,,2,3,3,22,2,20.0,30.0,25.0,30.0,30.0,30.0,30.0,25.0,,,10.0,,,15.0,,,,15.0,,7.0,12.0,50.0,24.0,5.0,4.0,15.0,,,,,,
UMOL,"Av. Urdaneta con Norte 1, Edf. Caoma",10.50769272004687, -66.91216833648609,,2,2,1,22,2,,,,45.0,,,,,,,,,,,,,,,,,,,,,,,,,,,,
Servicios Médicos Ellas,"Boulevard España, 2da y 3ra Avenida de Catia,  Edf. Tezin.",10.512260553964676, -66.94697810966315,,1,3,2,33,2,15.0,25.0,20.0,35.0,,25.0,,,,,,,,,,,,,,,,,,,,,,,,,,
Ecosalud,"Calle Perú, Casa Martha, Perez Bonalde",10.507519451897885, -66.95022355694775,,1,2,2,33,2,15.0,20.0,20.0,20.0,20.0,25.0,20.0,20.0,20.0,Reumatología: 20$ Urología: 20$,,,,15.0,,,,,,,,,,,,,,,,,,
Centro Médico Tabban,"Boulevard de Catia (Av. España) , Salida metro Plaza Sucre",10.51597316650728, -66.94624186722554,,1,3,2,32,2,25.0,,25.0,30.0,30.0,,,,,,,,,10.0,,,,,,5.0,10.0,25.0,18.0,2.0,2.0,16.0,,,,,,
Centro Médico Unicatia,"Av. México, entre C. El Cristo y Real de Los Magallanes, Catia",10.515186250525453, -66.94491972610575,,2,3,2,32,2,20.0,30.0,25.0,35.0,35.0,40.0,,50.0,,,,,,10.0,,,,,,3.0,10.0,20.0,20.0,2.0,2.0,20.0,,,,,,
Unidad Médica Altagracia,"Calle Colombia, Catia",10.510076152780288, -66.94661486237669,,1,2,2,32,2,10.0,10.0,20.0,,,,,,,,,,,,,,,,,3.0,5.0,15.0,30.0,1.0,1.0,18.0,,,,,,
Clínica Panamerica,"Calle Colombia, Catia",10.515891153665402, -66.94534381810624,,2,2,3,32,2,49.0,40.0,25.0,40.0,40.0,40.0,40.0,40.0,,Reumatología: 40$ Urología: 30$,23.0,,,30.0,,,,,,6.0,17.0,15.0,30.0,2.0,2.0,20.0,,,,,,
Centro Médico Propatria,"C.C. Propatria, Planta Baja",10.504043999527592, -66.95242186707091,,2,3,3,34,2,20.0,50.0,30.0,40.0,40.0,50.0,45.0,60.0,30.0,,,,,15.0,,,,,,6.0,15.0,42.0,16.0,4.0,4.0,20.0,,,,,,
Centro Médico Forma,"7ma Avenida, Entre Calle Argentina y Av. El Atlantico, Los Alvarados.",10.505198914844167, -66.94879006189693,,2,2,3,34,2,20.0,30.0,20.0,35.0,35.0,30.0,20.0,,20.0,Reumatología: 20$ Urología: 20$,,,,10.0,,,,,,4.0,11.0,10.0,15.0,2.0,2.0,15.0,,,,,,
Centro Médico La Fortaleza,"Calle Cecilio Acosta, San Bernardino",10.515781785801966, -66.90433169687847,,2,3,2,20,2,40.0,50.0,30.0,50.0,50.0,60.0,50.0,,,,,,,30.0,,,,,,10.0,15.0,35.0,25.0,5.0,5.0,30.0,,,,,,
Rayos Diagimalux,"Calle Francisco Javier Ustariz, San Bernardino",10.51796996501673, -66.90400195676081,,2,3,2,20,2,,43.0,,57.0,,,,,,,10.0,,,33.0,37.0,40.0,,,,10.0,27.0,66.0,40.0,6.0,6.0,46.0,,,,,,
Grupo Heliantus,"Av. Rafael Seijas con Av. Anauco, Qta. Mary, Local 6",10.516177800260678, -66.90189798901702,,2,2,3,20,2,35.0,35.0,30.0,30.0,30.0,,,,,,25.0,,,20.0,,,,,,6.0,13.0,20.0,20.0,4.0,4.0,20.0,,,,,,
Servicios Médicos Especializados - Centro Salud Caracas,"Av. Sorocaima, Edif. Centro Salud Caracas, PB.",10.513512938506958, -66.89618956661947,,2,3,2,20,2,40.0,40.0,40.0,40.0,40.0,40.0,40.0,,,,35.0,,,30.0,55.0,30.0,15.0,,,7.0,12.0,30.0,22.0,3.0,3.0,20.0,2000.0,3500.0,2000.0,2000.0,2000.0,300.0
Clínica Soñares,"Av. Eraso Urbanizacion, San Bernardino",10.511031833025758, -66.89765958450018,,2,2,1,20,2,,50.0,60.0,,,90.0,50.0,,,"ORL, PSICOLOGÍA, PSIQUIATRÍA. ESPECIALISTAS EN TRASTORNOS DE SUEÑO Y ENFERMEDADES RESPITARORIAS",,,,,,,,,,,,,,,,,,,,,,
Centro Clínico Profesional Caracas,"Avenida Panteón, Planta Baja, Hospital de Clínicas Caracas.",10.510587184428905, -66.89915268207652,,3,3,3,20,2,50.0,50.0,50.0,50.0,50.0,50.0,50.0,50.0,50.0,,,,,,,,,,,,,,,,,,1300.0,1600.0,1100.0,,,
Centro Médico Cruz del Avila,"Av. Sorocaima, Edif. Centro Salud Caracas, Piso 1",10.513503984819781, -66.89619365241,,3,3,3,20,2,20.0,40.0,40.0,40.0,40.0,40.0,40.0,40.0,40.0,,20.0,150.0,200.0,20.0,20.0,20.0,20.0,,Prueba de Esfuerzo: 50$,5.0,15.0,20.0,20.0,4.0,4.0,40.0,700.0,1000.0,700.0,700.0,700.0,300.0
Grupo Médico 708,"Av. Sorocaima, Edif. Centro Salud Caracas, Piso 4",10.513607494111506, -66.89621846284403,,1,3,2,20,2,25.0,50.0,50.0,50.0,50.0,50.0,50.0,50.0,50.0,,20.0,,,,,,,,,5.0,15.0,20.0,20.0,4.0,4.0,40.0,,,700.0,,,300.0
Unieco Unidad de Ecografía,"Av. Anauco y Av. Paraiso, Edif. Anexo del Instituto Diagnóstico San Bernardino, Piso 3",10.513845291237013, -66.90318925524191,,1,3,2,20,2,,,,,,,,,,,,,,20.0,,,,,,,,,,,,,,,,,,
Clínica Uni-Trauma,"Av. Los Proceres, Unidad Quirúrgica Esmeralda, Piso 5, San Bernardino",10.514627881062, -66.89701779488733,,1,3,3,20,2,,,,,,,,,30.0,,15.0,,,,,,,,,,,,,,,,,,,,,
Centro Clínico Adventista,"Av. Sur 4, Qta. Crespo.",10.495635274664712, -66.91823723373116,,3,3,2,28,2,34.0,34.0,34.0,34.0,,34.0,34.0,,,,29.0,,,29.0,,,,,,12.0,15.0,40.0,20.0,6.0,6.0,20.0,,,,,,
Instituto Prevención del Niño,Esq. de Glorieta a Hospital,10.499513663431268, -66.91740217705569,,2,2,1,28,2,,,20.0,,,,,,,,,,,,,,,,,,,,,,,,,,,,,
"Instituto de Medicana Tropical ""Dr. Félix Pifano""","Faculta de Medicina, UCV.",10.492740001145563, -66.89200795151874,,3,2,3,35,3,,,20.0,,,30.0,,,,"Infectología, Inmunología, Micología: 20$",,,,,,,,,,6.0,20.0,20.0,15.0,4.0,4.0,30.0,,,,,,
Centro Médico Coche,Av Guzman Blanco / Vereda 60,10.449376912722608, -66.9258032879527,,1,3,1,43,3,20.0,35.0,30.0,30.0,,35.0,50.0,,20.0,,,,,20.0,,,,,,7.0,15.0,18.0,15.0,2.0,3.0,18.0,,,,,,
Unidad Médica Santa Lucía,"Av. Capitán de Navía Felipe Estévez,entre Bogota y Providencia, Los Castaños, El Cementerio.",10.478857713674634, -66.91629209343621,,1,3,1,38,3,10.0,,,,,,,,,,,,,,,,,,,,,,,,,,,,,,,
Centro de Bienestar Social Las Acacias,"Transveral 7, entre Av. Los Samanes y Calle Atrás de los Totumos, Casa Gladys Mariana #43",10.476725246144193, -66.91124251320537,,3,1,1,38,3,15.0,25.0,18.0,35.0,,,,,,,,,,20.0,,,,,,10.0,15.0,20.0,25.0,5.0,4.0,25.0,,,,,,
Grupo Médico Odontológico Dra. Zaraell Lopez Rodriguez,"Av. Intercomunal El Valle, Centro Comercial el Valle, Piso7",10.46743269737283, -66.90491411940286,,1,2,2,41,3,20.0,20.0,20.0,15.0,30.0,,,,,,,,,,,,,,,5.0,15.0,20.0,10.0,5.0,5.0,20.0,,,,,,
Unidad Médica y Odontológica Inty Slute,Centro Comercial El Valle / Piso 3,10.467300046080828, -66.90473619166846,,1,2,3,41,3,15.0,20.0,15.0,15.0,,,30.0,,,,,,,20.0,,,,,,4.0,13.0,25.0,20.5,3.0,3.0,17.5,,,,,,
Centro Médico Alianza,Centro Comercial El Valle / Piso 4,10.467321920312736, -66.90471159543942,,1,2,2,41,3,20.0,20.0,20.0,30.0,20.0,40.0,25.0,,,,,,,20.0,,,,,,4.0,10.0,20.0,20.0,4.0,4.0,17.0,,,,,,
Grupo Médico Valle Salud,Centro Comercial El Valle / Piso 7,10.467224163224005, -66.90457989532577,,1,2,1,41,3,25.0,25.0,20.0,15.0,15.0,,,,,,,,,,,,,,,5.0,13.0,15.0,18.0,4.0,4.0,18.0,,,,,,
Grupo Médico Las Acacias,Av. Guayana cruce con América Las Acacias,10.483253862588283, -66.89672450772822,,2,3,3,39,3,30.0,40.0,30.0,40.0,,40.0,40.0,40.0,,,20.0,,,30.0,40.0,,,,,7.0,20.0,50.0,20.0,3.0,3.0,18.0,2100.0,2500.0,2000.0,2300.0,2100.0,600.0
Clínica Solidaria Amigo de Los Ciegos,"Av. Louis Braille, con Av. Maria Teresa Toro, Las Acacias",10.48532279414953, -66.90658417232305,,3,3,3,39,3,30.0,30.0,30.0,35.0,,35.0,30.0,30.0,,,20.0,,,35.0,45.0,40.0,25.0,,,7.0,20.0,25.0,25.0,2.0,2.0,20.0,,,,,,
Plafam,Av. Presidente Medina con Calle Minerva,10.486691249755655, -66.89600758897797,,2,3,3,39,3,20.0,20.0,20.0,20.0,,,20.0,,,,,,,12.0,,,,,,5.0,25.0,45.0,14.0,3.0,3.0,15.0,,,,,,
Clínica Jimenez Muñoz,"Av. El Parque, Edificio Clínica Jiménez Muñoz, Piso PB.",10.484382971185967, -66.89816768458476,,2,1,1,39,3,30.0,60.0,40.0,50.0,,80.0,,,,,,,,,,,,,,,,,,,,,,,,,,
CardioDiagnóstico CP,"Calle Los Abogados, entre Avenida Facultad y las Ciencias, Qta. Verona, Los Chaguaramos.",10.483204218227074, -66.88943190919207,,2,3,2,46,3,,,,,,40.0,50.0,50.0,,,40.0,,,40.0,,,40.0,60.0,Prueba de Esfuerzo: 80$,,,,,,,,,,,,,
I.M.Q Dr. Jimenez Rojas,"Calle Humboldt, Edif. Instituto Médico Dr. Jiménez Rojas, Urb. Los Chaguaramos.",10.485988685029785, -66.88625838954651,,3,2,1,46,3,,60.0,30.0,35.0,35.0,50.0,50.0,,,,15.0,,,30.0,,,,,,10.0,20.0,60.0,50.0,5.0,5.0,20.0,1200.0,1850.0,1000.0,1280.0,,
ArcaSalud,"Calle Humboldt con Av. La Facultad, Urb. Los Chaguaramos.",10.486785651261222, -66.88724630845368,,3,3,1,46,3,,,,,,,,,20.0,Traumatología: 40$ Fisitría: 40$,,,,,,,,,,8.0,11.0,20.0,22.0,4.0,4.0,22.0,,,,,,
Magneto Imágenes,"Calle Sanoja, Qta. Teresita, Local PB, Los Chaguaramos.",10.481638980887617, -66.88864144907136,,2,3,1,46,3,,,,,,,,,,,,,80.0,,,,,,,,,,,,,,,,,,,
CEM Centro de Especialidades Médicas,"C. C. Los Proceres, Nivel 1, Local CSIIIPI-02, III Etapa, Los Ilustres.",10.473040012775558, -66.89460765889412,,2,3,1,48,3,,70.0,35.0,45.0,45.0,,45.0,,,,,,,20.0,,,,,,,,,,,,,,,,,,
Consultorio Médico Dr. Antonio Matinella,"Av. Intercomunal El Valle, Edificio CTV",10.459428830759778, -66.91584384007845,,1,2,2,42,3,10.0,,,10.0,10.0,,,,,,,,,15.0,,,,,,,,,,,,,,,,,,
Centro Médico Odontológico Garcia Lovera,"Av. Intercomunal El Valle, Calle 8",10.4594369999192, -66.91633532723206,,2,2,1,42,3,,,30.0,30.0,15.0,,,,,,,,,,,,,,,8.0,15.0,25.0,20.0,5.0,5.0,20.0,,,,,,
Clínica Salto Angel 2010,Av Inter Comunal / Calle 14,10.456452044571114, -66.91858573918668,,1,2,1,42,3,30.0,30.0,20.0,20.0,20.0,30.0,,,,,10.0,,,20.0,,,,,,8.0,15.0,25.0,30.0,3.0,3.0,20.0,,,,,,
Laboratorio Clínico Rivera,Av Inter Comunal / Calle 11,10.458116083225617, -66.91769478218437,,1,2,2,42,3,,,20.0,20.0,,,,,,,,,,,,,,,,5.0,10.0,20.0,15.0,5.0,5.0,20.0,,,,,,
Centro Médico Quirúrgico Beltran,Av. Guzmán Blanco,10.443747573754322, -66.92766917180259,,1,3,2,44,3,20.0,25.0,20.0,25.0,25.0,25.0,,,,,,,,,,,,,,7.0,20.0,35.0,20.0,5.0,5.0,25.0,,,,,,
Centro Médico Quirúrgico los 7 Arcangeles,"Calle Arturo Michelena, Qta. Maria Antonieta, Santa Monica.",10.477926706973355, -66.8898145296685,,2,3,1,47,3,,45.0,,45.0,45.0,60.0,,45.0,,,25.0,,,25.0,,,,,,4.0,20.0,30.0,40.0,3.0,3.0,17.0,1800.0,,1800.0,,,
CEDIVI,"Calle Agustín Codazzi, entre Av. Teresa de la Parra y Av. Arturo Michelena, Quinta Don Pancho, Santa Mónica.",10.478497418563865, -66.89154728588298,,3,2,1,47,3,,,,,,,,,,,25.0,160.0,,30.0,35.0,30.0,,,,,,,,,,,,,,,,
CEMANEX SC,"Calle Cristobal Rojas, entre Calle Reinaldo Hahn y Simón Planas, Santa Mónica.",10.47845661240729, -66.88906987839171,,2,3,1,47,3,,80.0,40.0,40.0,40.0,40.0,40.0,,25.0,,,,,40.0,,,80.0,,,,,,,,,,,,,,,
Prevencardio,"Calle Arturo Michelena, con Agustin Codazzi. Qta. Maria Antonieta, Santa Monica.",10.477650138344032, -66.89057242235371,,1,1,1,47,3,,,,,,60.0,,,,,,,,,,,,,Prueba de Esfuerzo: 90$,,,,,,,,,,,,,
Amore Salud,"Calle Ramón Mendez, entre Av. Teresa de la Parra y Francisco Pimentel, Qta. La Guaira, Santa Mónica",10.479737874422392, -66.89186206256623,,2,3,1,47,3,20.0,45.0,35.0,25.0,25.0,45.0,35.0,,,,25.0,,,15.0,,,,,,6.0,10.0,35.0,25.0,5.5,5.5,20.0,,,,,,
Grupo Médico Venus 2020,Antímano Calle Cruz Verde,10.464206131313869, -66.98416214112073,,2,3,2,61,4,20.0,,20.0,20.0,20.0,,,,,,,,,,,,,,,5.0,15.0,15.0,15.0,3.0,3.0,15.0,,,,,,
Centro Médico Zeus,"Calle Real de Antímano, Junto a Casa Parroquial",10.462895248170177, -66.98224561986092,,1,1,3,61,4,20.0,20.0,20.0,20.0,20.0,20.0,,,20.0,,,,,,,,,,,5.0,15.0,15.0,15.0,2.0,2.0,20.0,,,,,,
Elohim Grupo de Especialidades Médica,"Centro Comercial Los Molinos, San Martín",10.491587569429335, -66.94155701150447,,2,2,2,54,4,20.0,20.0,20.0,20.0,20.0,20.0,,,,,,,,25.0,,,,,Prueba de Esfuerzo: 30$,,,,,,,,,,,,,
Centro Médico Milenio,"Centro Comercial Los Molinos, San Martín",10.491266113866022, -66.94178906319846,,2,2,2,54,4,20.0,,20.0,20.0,20.0,,,,,,,,,,,,,,,,,,,,,,,,,,,
Centro de Diagnóstico de la Mujer CENDIMU,"Centro Comercial San Martín, San Martín",10.491717684685822, -66.93960812249311,,2,2,2,54,4,30.0,30.0,30.0,30.0,30.0,30.0,,,,,15.0,,,20.0,20.0,20.0,,,,,,,,,,,,,,,,
Grupo Médico San Martín,"Centro Comercial San Martín, San Martín",10.49191551810083, -66.93896951165326,,2,2,2,54,4,25.0,25.0,25.0,25.0,25.0,40.0,,,,,,,,,,,,,,5.0,10.0,20.0,15.0,2.0,2.0,15.0,,,,,,
CIMSAVID,UD3 Caricuao,10.433094216807595, -66.9711856302316,,2,3,3,64,4,30.0,30.0,30.0,30.0,30.0,30.0,30.0,,,,,,,,,,,,,5.0,12.0,12.0,12.0,2.0,2.0,12.0,,,,,,
Centro de Estudios Médicos Integrales,"Av. Washington, Qta. Raim",10.48656131671284, -66.93991589702411,,2,3,3,53,4,,30.0,,30.0,31.0,45.0,,,,,,,,30.0,,,,35.0,,,,,,,,,,,,,,
Centro Especialistas Washington,"Avenida Washington, Caracas 1020, Distrito Capital",10.484933787117704, -66.93942732453964,,2,3,2,53,4,30.0,30.0,,35.0,35.0,35.0,35.0,,,,,,,35.0,,,,,,10.0,8.0,7.0,10.0,8.0,8.0,20.0,,,,,,
Unidad de Especialidades Gastroenterología,"Centro Profesional el Paraíso, diagonal al Hotel el Pinar",10.484369813859779, -66.93606023783934,,3,3,3,53,4,,60.0,,,,,80.0,,,,,,,40.0,,,,,,,,,,,,,,,,,,
Centro Médico Paraiso,"Centro Profesional El Paraiso, piso 1 Oficina 104",10.484332514987832, -66.93580609234587,,2,3,2,53,4,15.0,20.0,20.0,20.0,20.0,20.0,20.0,20.0,20.0,,10.0,,,20.0,15.0,,15.0,,,5.0,10.0,10.0,15.0,2.0,2.0,10.0,,,,,,
Sentir Salud. Atención Médica,"Edif. RCG, Nivel Mezzanina, Plaza Madariaga",10.491026134350568, -66.9243632462273,,1,3,2,53,4,20.0,30.0,,,,30.0,,,,,,,,,,,,,,8.0,10.0,15.0,15.0,4.0,4.0,20.0,,,,,,
Centro Jesús de Nazareth,"Sector el Carmen, Caracas 1020, Distrito Capital",10.468153402730355, -66.94408300737962,,3,3,3,57,4,10.0,,10.0,10.0,10.0,,,,,,,,,30.0,,,,,,8.0,10.0,10.0,20.0,2.0,2.0,23.0,,,,,,
Clínica Gómez y Asociados,"Calle Libertador, La Vega, Caracas 1020, Distrito Capital",10.472022749561491, -66.94572644576252,,3,3,3,57,4,25.0,,25.0,20.0,20.0,,,,,,,,,,,,,,,,,,,,,,,,,,,
Centro Médico Ginecología,"Calle San José, C.C. El Colonial, La Vega",10.46952422465106, -66.94794903399911,,1,3,3,57,4,10.0,,,,10.0,,,,,,,,,,,,,,,,,,,,,,,,,,,
Clínica El Carmen,"Calle Principal de Santa Cruz, Las Adjuntas",10.424720164578577, -67.01507738487484,,1,2,2,65,4,15.0,15.0,15.0,15.0,15.0,,,,,,,,,,,,,,,6.0,15.0,28.0,18.0,3.0,3.0,18.0,,,,,,
Centro Comunitario de Atención Integral CECAMI,"Calle Principal de Santa Cruz, Las Adjuntas",10.425160859674564, -67.01572263305019,,1,2,3,65,4,8.0,,,8.0,8.0,,,,,,,,,,,,,,,5.0,14.0,40.0,18.0,2.0,2.0,18.0,,,,,,
Centro Médico La Principal,"Calle Principal de Santa Cruz, Las Adjuntas",10.425363661570765, -67.01568689701935,,1,1,3,65,4,10.0,,10.0,15.0,15.0,,,,,,,,,12.0,,,,,,15.0,10.0,,18.0,3.0,3.0,15.0,,,,,,
Centro Médico Dr. Vargas,"Calle El Río, Las Adjuntas",10.425418272919542, -67.01527377692237,,1,3,1,65,4,,30.0,,,,,,,,,,,,,,,,,,,,,,,,,,,,,,
Clínica Mederi Oeste,"Entre San Martín y Lecuna, Esq. Los Angelitos",10.50180923219175, -66.92079777067147,,2,3,3,51,4,20.0,20.0,,20.0,20.0,20.0,20.0,,20.0,,,,,10.0,,,,,,,,,,,,,,,,,,
Unidad Medica Uslar,"2da Avenida, entre Trans. 22 y Calle 1, Centro Comercial Uslar",10.475447733597553, -66.94960316017242,,3,3,3,58,4,,40.0,,60.0,60.0,80.0,,,,,,,,,,,,,,15.0,18.0,,,,,,,,,,,
Servicio Médico Demucent,"2da Avenida, con Calle 1, El Paraiso",10.475946908418996, -66.94858547074985,,2,3,3,58,4,,60.0,,,,,,,,,,,,,,,,,,,,,,,,,,,,,,
SUPERSALUD Centro de Especialidades Médicas y Odontológicas,"Montalbán 3, C.C Caracas, Piso 2, local 12",10.472426570069095, -66.96018563801326,,2,3,3,58,4,20.0,30.0,25.0,30.0,30.0,30.0,40.0,40.0,,,,,,15.0,,,,,,5.0,10.0,,,6.0,6.0,,,,,,,
Grupo Médico Popular Caricuao Plaza,"Avenida Principal de Ruíz Pineda, Centro Comercial Caricuao Plaza",10.434529263848557, -66.9996181484143,,2,2,1,63,4,20.0,20.0,20.0,20.0,20.0,20.0,,,20.0,,,,,20.0,,,,,,3.5,15.0,27.0,20.0,2.0,2.0,20.0,,,,,,
Medical Center Ruíz Pineda,"UD7 Caricuao, Frente a Biblioteca Aquiles Nazoa.",10.437311882997006, -66.99224406015672,,1,3,2,63,4,25.0,,25.0,25.0,25.0,,,,,,,,,,,,,,,4.0,18.0,15.0,18.0,3.0,3.0,18.0,,,,,,
Centro UD5 Caricuao,"UD5 Caricuao, Centro Comercial Procar, Frente Clínica Popular Caricuao.",10.433775779960266, -66.96322812676397,,2,2,2,66,4,30.0,30.0,30.0,30.0,30.0,30.0,,,,,,,,,,,,,,5.0,15.0,15.0,15.0,3.0,3.0,15.0,,,,,,
Centro Profesional Baruta,"Calle Bolivar #21, Edif. Villa Carmen",10.434167129262805, -66.87548288172198,,2,2,1,68,5,,,,,,,,,,,,,,,,,,,,,,,,,,,,,,,,
Salud y Familia.  Centro de Asistencia Médico Familiar,"Calle Miranda con Calle Bolívar, Baruta",10.43475429336783, -66.87333165050725,,3,3,3,68,5,25.0,25.0,25.0,25.0,25.0,,25.0,30.0,,,,,,25.0,,,,,,,,,,,,,,,,,,
Centro Odontomédico Las Minas,"Carretera, Caracas-Baruta con Caracas-Las Minas, Las Minas de Baruta",10.447670128724818, -66.86249887131551,,2,3,3,68,5,20.0,30.0,30.0,30.0,30.0,30.0,0.0,,,,,,,,,,,,,5.0,15.0,30.0,15.0,5.0,5.0,25.0,,,,,,
Centro Médico Integral Popular,AV. Principal Las Minas de Baruta,10.447444754831265, -66.86242596413649,,2,2,2,68,5,20.0,20.0,20.0,20.0,20.0,,,,,,,,,,,,,,,7.0,15.0,25.0,25.0,5.0,5.0,20.0,,,,,,
Unidad Médica Plaza Baruta,Calle Negro Primero con Calle Bolivar,10.434518529649312, -66.87535572260609,,2,3,2,68,5,,,,60.0,20.0,,,,,,,,,,,,,,,,,,,,,,,,,,,
Centro Empresarial Baruta,"Calle Sucre, entre C. Salom y C. Negro Primero, Baruta",10.435403650294038, -66.87483495890622,,2,2,2,68,5,,,,,,,,,,,,,,,,,,,,,,,,,,,,,,,,
Centro Médico Popular Las Minas de Baruta,"Carretera Baruta Caracas, Sector Las Minas de Baruta",10.447559750797836, -66.86252326865677,,1,3,2,68,5,20.0,20.0,20.0,20.0,20.0,,,,,,,,,40.0,,,,,,,,,,,,,,,,,,
Centro Comunal San Edmundo,Colegio Americano y Calle Federación,10.447513686491035, -66.86222138082827,,2,2,3,68,5,15.0,15.0,15.0,,,,,,,,,,,,,,,,,,,,,,,,,,,,,
Dispensario Nuestra Señora de Fátima,"Carretera Baruta Caracas, Sector Las Minas de Baruta",10.447055159378737, -66.86241032696837,,2,2,2,68,5,20.0,20.0,20.0,20.0,20.0,,,,,,,,,20.0,,,,,,12.0,18.0,18.0,20.0,3.0,3.0,20.0,,,,,,
Centro Ambulatorio CCCT,"Av. La Estancia CCCT, Torre D nivel lobby",10.484493473099965, -66.8546360631302,,2,3,2,9,5,30.0,30.0,,40.0,40.0,40.0,40.0,,30.0,,,,,25.0,,,,,,,,,,,,,,1200.0,1100.0,,,
Diagnósticos Terras,"C.C. Terras Plaza, Av. Parque Humboldt",10.446914832935859, -66.87083202989959,,2,3,2,67,5,,,,,,,,,,,,360.0,120.0,,,,,,,15.0,30.0,35.0,30.0,5.0,5.0,45.0,,,,,,
SonoLife,"Av. Las Repúblicas y Las Americas, Centro Comercial Terras Plaza, Nivel C1, Local 17, Terrazas del Club Hípico,",10.446819711362407, -66.87061185265976,,2,2,2,67,5,,,,,,,,,,,,,,60.0,120.0,,,,,,,,,,,,,,,,,
Imágenes Clínicas de Venezuela,"Av. Las Repúblicas, Terrazas del Club Hípoco",10.446887316554633, -66.87102333397554,,2,3,2,67,5,,,,,,,,,,,40.45,,,50.0,50.6,30.0,,,,,,,,,,,,,,,,
Unidad Médica Care Plus,"Concresa, C.C. Concresa",10.451301600420791, -66.87266258227457,,2,3,2,67,5,,,,,,,,,30.0,,,,,,,,,,,,,,,,,,,,,,,
Centro Médico de la Mano,"Avenida América, C.C. Terras Plaza PB, Local Nº 9",10.446506931435897, -66.8707569935921,,2,3,2,67,5,,,,,,,,,100.0,,,,,,,,,,,,,,,,,,,,,,,
Unidad Diagnóstica Caura,"Av. Río Caura, C.C. Concresa",10.451909349951626, -66.87244206082387,,2,3,2,67,5,40.0,40.0,,40.0,,40.0,,,,,30.0,,,40.0,40.0,30.0,,,,10.0,30.0,30.0,34.0,5.0,5.0,50.0,,,,,,
AlMedical,"Centro Comercial Concresa, Nivel TD, Av. Río Caura",10.451762529103267, -66.87277914110426,,2,3,1,67,5,30.0,45.0,45.0,50.0,50.0,45.0,,,,Pre-Operatorio: 85$,,,,25.0,50.0,,,,,18.0,25.0,25.0,25.0,4.0,4.0,35.0,,,,2300.0,,
Plaza Salud Clínica Integral,"Centro Comercial Plaza las Américas II, PB, Local PB, 21",10.458551155337737, -66.82894063186541,,2,3,1,73,5,50.0,,,,,,,,,,,,,,,,,,,,,,,,,,,,,,,
SuperLab,Av. Principal del Cafetal,10.473955018554719, -66.83908513653176,,2,3,2,73,5,40.0,40.0,40.0,,,40.0,40.0,40.0,,,,,,,,,,,,7.0,20.0,30.0,30.0,7.0,8.0,25.0,,,,,,
Terapia Atlética Corporal,"Av. Principal de Santa Sofía, CC Santa Sofía, Nivel Mezzanina, Local A7",10.473275612475911, -66.84277632499598,,3,2,1,73,5,,,,,,,,,30.0,,,,,,,,,,,,,,,,,,,,,,,
Salud para Todos,"C.C. Paseo El Hatillo, Nivel Sotano",10.423518714680311, -66.82430399800964,,2,3,2,71,5,,,,,,,,,,,,,,,,,,,,8.0,14.0,14.0,18.0,8.0,8.0,20.0,,,,,,
Ambulatorio Jesus Reggeti,"Calle La Lagunita con Calle la Mota, Polideportivo Vinicio Mata",10.421539382644307, -66.8249450881394,,3,2,3,71,5,,,,,,,,,,,,,,,,,,,,8.0,14.0,14.0,8.0,8.0,8.0,20.0,,,,,,
Dra. Reyna Hurtado,"Calle Sucre, entre C. Instrucción y C. Comercio",10.422767670720498, -66.8256705527303,,1,3,1,71,5,,,30.0,,,,,,,,,,,,,,,,,,,,,,,,,,,,,
Apoyamed 365,"Edificio Villanova, Calle Luis De Camoens, La Trinidad",10.436152213412498, -66.8657041834113,,2,3,2,69,5,10.0,50.0,,40.0,40.0,50.0,,,40.0,,,,,16.0,,,,,,8.0,18.0,35.0,25.0,,,20.0,,,,,,
Grupo Medis Santa Fe,"Avenida José Maria Vargas, Centro Comercial Santa Fe",10.466518036832026, -66.87135774383417,,3,3,2,72,5,40.0,40.0,40.0,80.0,,60.0,70.0,40.0,,,40.0,,,30.0,40.0,30.0,50.0,90.0,,8.0,34.0,20.0,30.0,5.0,4.0,45.0,,,,,,
